[
 {
 "cityList": [{
              "id": 0,
              "lat": "",
              "letter": "",
              "lng": "",
              "name": "不限",
              "pid": 0
              }],
 "id": 0,
 "lat": "29.533155",
 "letter": "Z",
 "lng": "106.504959",
 "name": "不限"
 },
 {
 "cityList": [{
              "id": 0,
              "lat": "",
              "letter": "",
              "lng": "",
              "name": "不限",
              "pid": 1273
              },{
              "id": 1274,
              "lat": "26.075302",
              "letter": "F",
              "lng": "119.306236",
              "name": "福州市",
              "pid": 1273
              }, {
              "id": 1289,
              "lat": "24.490475",
              "letter": "X",
              "lng": "118.110222",
              "name": "厦门市",
              "pid": 1273
              }, {
              "id": 1297,
              "lat": "25.431011",
              "letter": "P",
              "lng": "119.007561",
              "name": "莆田市",
              "pid": 1273
              }, {
              "id": 1304,
              "lat": "26.265444",
              "letter": "S",
              "lng": "117.635002",
              "name": "三明市",
              "pid": 1273
              }, {
              "id": 1318,
              "lat": "24.908854",
              "letter": "Q",
              "lng": "118.589424",
              "name": "泉州市",
              "pid": 1273
              }, {
              "id": 1332,
              "lat": "24.510897",
              "letter": "Z",
              "lng": "117.661804",
              "name": "漳州市",
              "pid": 1273
              }, {
              "id": 1345,
              "lat": "26.635626",
              "letter": "N",
              "lng": "118.178459",
              "name": "南平市",
              "pid": 1273
              }, {
              "id": 1357,
              "lat": "25.091602",
              "letter": "L",
              "lng": "117.029778",
              "name": "龙岩市",
              "pid": 1273
              }, {
              "id": 1366,
              "lat": "26.659241",
              "letter": "N",
              "lng": "119.527084",
              "name": "宁德市",
              "pid": 1273
              }],
 "id": 1273,
 "lat": "26.075302",
 "letter": "F",
 "lng": "119.306236",
 "name": "福建省"
 },{
 "cityList": [{
              "id": 0,
              "lat": "",
              "letter": "",
              "lng": "",
              "name": "不限",
              "pid": 1133
              }, {
              "id": 1134,
              "lat": "31.861189",
              "letter": "H",
              "lng": "117.283043",
              "name": "合肥市",
              "pid": 1133
              }, {
              "id": 1143,
              "lat": "31.326319",
              "letter": "W",
              "lng": "118.376450",
              "name": "芜湖市",
              "pid": 1133
              }, {
              "id": 1152,
              "lat": "32.939667",
              "letter": "B",
              "lng": "117.363228",
              "name": "蚌埠市",
              "pid": 1133
              }, {
              "id": 1161,
              "lat": "32.647575",
              "letter": "H",
              "lng": "117.018326",
              "name": "淮南市",
              "pid": 1133
              }, {
              "id": 1169,
              "lat": "31.689362",
              "letter": "M",
              "lng": "118.507904",
              "name": "马鞍山市",
              "pid": 1133
              }, {
              "id": 1175,
              "lat": "33.971706",
              "letter": "H",
              "lng": "116.794662",
              "name": "淮北市",
              "pid": 1133
              }, {
              "id": 1181,
              "lat": "30.929935",
              "letter": "T",
              "lng": "117.816574",
              "name": "铜陵市",
              "pid": 1133
              }, {
              "id": 1187,
              "lat": "30.508829",
              "letter": "A",
              "lng": "117.043549",
              "name": "安庆市",
              "pid": 1133
              }, {
              "id": 1200,
              "lat": "29.709240",
              "letter": "H",
              "lng": "118.317322",
              "name": "黄山市",
              "pid": 1133
              }, {
              "id": 1209,
              "lat": "32.303627",
              "letter": "C",
              "lng": "118.316261",
              "name": "滁州市",
              "pid": 1133
              }, {
              "id": 1219,
              "lat": "32.896969",
              "letter": "F",
              "lng": "115.819733",
              "name": "阜阳市",
              "pid": 1133
              }, {
              "id": 1229,
              "lat": "33.633892",
              "letter": "S",
              "lng": "116.984085",
              "name": "宿州市",
              "pid": 1133
              }, {
              "id": 1236,
              "lat": "31.600517",
              "letter": "C",
              "lng": "117.874153",
              "name": "巢湖市",
              "pid": 1133
              }, {
              "id": 1243,
              "lat": "31.752890",
              "letter": "L",
              "lng": "116.507675",
              "name": "六安市",
              "pid": 1133
              }, {
              "id": 1252,
              "lat": "33.869339",
              "letter": "B",
              "lng": "115.782936",
              "name": "亳州市",
              "pid": 1133
              }, {
              "id": 1258,
              "lat": "30.656036",
              "letter": "C",
              "lng": "117.489159",
              "name": "池州市",
              "pid": 1133
              }, {
              "id": 1264,
              "lat": "30.945667",
              "letter": "X",
              "lng": "118.757996",
              "name": "宣城市",
              "pid": 1133
              }],
 "id": 1133,
 "lat": "31.861189",
 "letter": "A",
 "lng": "117.283043",
 "name": "安徽省"
 }, {
 "cityList": [{
              "id": 0,
              "lat": "",
              "letter": "",
              "lng": "",
              "name": "不限",
              "pid": 3523
              },{
              "id": 4934,
              "lat": "22.200294",
              "letter": "A",
              "lng": "113.547073",
              "name": "澳门半岛",
              "pid": 3523
              }],
 "id": 3523,
 "lat": "22.198950",
 "letter": "A",
 "lng": "113.549088",
 "name": "澳门"
 }, {
 "cityList": [{
              "id": 0,
              "lat": "",
              "letter": "",
              "lng": "",
              "name": "不限",
              "pid": 1
              },{
              "id": 2,
              "lat": "39.904987",
              "letter": "B",
              "lng": "116.405281",
              "name": "北京市",
              "pid": 1
              }],
 "id": 1,
 "lat": "39.904987",
 "letter": "B",
 "lng": "116.405281",
 "name": "北京"
 }, {
 "cityList": [{
              "id": 0,
              "lat": "",
              "letter": "",
              "lng": "",
              "name": "不限",
              "pid": 2147
              },{
              "id": 2148,
              "lat": "23.125177",
              "letter": "G",
              "lng": "113.280640",
              "name": "广州市",
              "pid": 2147
              }, {
              "id": 2162,
              "lat": "24.801321",
              "letter": "S",
              "lng": "113.591545",
              "name": "韶关市",
              "pid": 2147
              }, {
              "id": 2174,
              "lat": "22.546999",
              "letter": "S",
              "lng": "114.085945",
              "name": "深圳市",
              "pid": 2147
              }, {
              "id": 2182,
              "lat": "22.224979",
              "letter": "Z",
              "lng": "113.553986",
              "name": "珠海市",
              "pid": 2147
              }, {
              "id": 2187,
              "lat": "23.371019",
              "letter": "S",
              "lng": "116.708466",
              "name": "汕头市",
              "pid": 2147
              }, {
              "id": 2196,
              "lat": "23.028763",
              "letter": "F",
              "lng": "113.122719",
              "name": "佛山市",
              "pid": 2147
              }, {
              "id": 2203,
              "lat": "22.590431",
              "letter": "J",
              "lng": "113.094940",
              "name": "江门市",
              "pid": 2147
              }, {
              "id": 2212,
              "lat": "21.274899",
              "letter": "Z",
              "lng": "110.364975",
              "name": "湛江市",
              "pid": 2147
              }, {
              "id": 2223,
              "lat": "21.659750",
              "letter": "M",
              "lng": "110.919228",
              "name": "茂名市",
              "pid": 2147
              }, {
              "id": 2231,
              "lat": "23.051546",
              "letter": "Z",
              "lng": "112.472527",
              "name": "肇庆市",
              "pid": 2147
              }, {
              "id": 2241,
              "lat": "23.079405",
              "letter": "H",
              "lng": "114.412598",
              "name": "惠州市",
              "pid": 2147
              }, {
              "id": 2248,
              "lat": "24.299112",
              "letter": "M",
              "lng": "116.117584",
              "name": "梅州市",
              "pid": 2147
              }, {
              "id": 2258,
              "lat": "22.774485",
              "letter": "S",
              "lng": "115.364235",
              "name": "汕尾市",
              "pid": 2147
              }, {
              "id": 2264,
              "lat": "23.746265",
              "letter": "H",
              "lng": "114.697800",
              "name": "河源市",
              "pid": 2147
              }, {
              "id": 2272,
              "lat": "21.859222",
              "letter": "Y",
              "lng": "111.975105",
              "name": "阳江市",
              "pid": 2147
              }, {
              "id": 2278,
              "lat": "23.685020",
              "letter": "Q",
              "lng": "113.051224",
              "name": "清远市",
              "pid": 2147
              }, {
              "id": 2288,
              "lat": "23.046238",
              "letter": "D",
              "lng": "113.746262",
              "name": "东莞市",
              "pid": 2147
              }, {
              "id": 2289,
              "lat": "22.521112",
              "letter": "Z",
              "lng": "113.382393",
              "name": "中山市",
              "pid": 2147
              }, {
              "id": 2290,
              "lat": "23.661701",
              "letter": "C",
              "lng": "116.632301",
              "name": "潮州市",
              "pid": 2147
              }, {
              "id": 2295,
              "lat": "23.543777",
              "letter": "J",
              "lng": "116.355736",
              "name": "揭阳市",
              "pid": 2147
              }, {
              "id": 2302,
              "lat": "22.929800",
              "letter": "Y",
              "lng": "112.044441",
              "name": "云浮市",
              "pid": 2147
              }],
 "id": 2147,
 "lat": "23.125177",
 "letter": "G",
 "lng": "113.280640",
 "name": "广东省"
 }, {
 "cityList": [{
              "id": 0,
              "lat": "",
              "letter": "",
              "lng": "",
              "name": "不限",
              "pid": 2309
              },{
              "id": 2310,
              "lat": "22.824020",
              "letter": "N",
              "lng": "108.320007",
              "name": "南宁市",
              "pid": 2309
              }, {
              "id": 2324,
              "lat": "24.314617",
              "letter": "L",
              "lng": "109.411705",
              "name": "柳州市",
              "pid": 2309
              }, {
              "id": 2336,
              "lat": "25.274216",
              "letter": "G",
              "lng": "110.299118",
              "name": "桂林市",
              "pid": 2309
              }, {
              "id": 2355,
              "lat": "23.474802",
              "letter": "W",
              "lng": "111.297607",
              "name": "梧州市",
              "pid": 2309
              }, {
              "id": 2364,
              "lat": "21.473343",
              "letter": "B",
              "lng": "109.119255",
              "name": "北海市",
              "pid": 2309
              }, {
              "id": 2370,
              "lat": "21.614630",
              "letter": "F",
              "lng": "108.345474",
              "name": "防城港市",
              "pid": 2309
              }, {
              "id": 2376,
              "lat": "21.967127",
              "letter": "Q",
              "lng": "108.624176",
              "name": "钦州市",
              "pid": 2309
              }, {
              "id": 2382,
              "lat": "23.093599",
              "letter": "G",
              "lng": "109.602142",
              "name": "贵港市",
              "pid": 2309
              }, {
              "id": 2389,
              "lat": "22.631361",
              "letter": "Y",
              "lng": "110.154396",
              "name": "玉林市",
              "pid": 2309
              }, {
              "id": 2397,
              "lat": "23.897741",
              "letter": "B",
              "lng": "106.616287",
              "name": "百色市",
              "pid": 2309
              }, {
              "id": 2411,
              "lat": "24.414141",
              "letter": "H",
              "lng": "111.552055",
              "name": "贺州市",
              "pid": 2309
              }, {
              "id": 2417,
              "lat": "24.695898",
              "letter": "H",
              "lng": "108.062103",
              "name": "河池市",
              "pid": 2309
              }, {
              "id": 2430,
              "lat": "23.733765",
              "letter": "L",
              "lng": "109.229774",
              "name": "来宾市",
              "pid": 2309
              }, {
              "id": 2438,
              "lat": "22.404108",
              "letter": "C",
              "lng": "107.353928",
              "name": "崇左市",
              "pid": 2309
              }],
 "id": 2309,
 "lat": "22.824020",
 "letter": "G",
 "lng": "108.320007",
 "name": "广西壮族自治区"
 }, {
 "cityList": [{
              "id": 0,
              "lat": "",
              "letter": "",
              "lng": "",
              "name": "不限",
              "pid": 2741
              },{
              "id": 2742,
              "lat": "26.578342",
              "letter": "G",
              "lng": "106.713478",
              "name": "贵阳市",
              "pid": 2741
              }, {
              "id": 2754,
              "lat": "26.584642",
              "letter": "L",
              "lng": "104.846741",
              "name": "六盘水市",
              "pid": 2741
              }, {
              "id": 2759,
              "lat": "27.706625",
              "letter": "Z",
              "lng": "106.937263",
              "name": "遵义市",
              "pid": 2741
              }, {
              "id": 2775,
              "lat": "26.245544",
              "letter": "A",
              "lng": "105.932190",
              "name": "安顺市",
              "pid": 2741
              }, {
              "id": 2783,
              "lat": "27.718346",
              "letter": "T",
              "lng": "109.191551",
              "name": "铜仁地区",
              "pid": 2741
              }, {
              "id": 2794,
              "lat": "25.088120",
              "letter": "Q",
              "lng": "104.897972",
              "name": "黔西南布依族苗族自治州",
              "pid": 2741
              }, {
              "id": 2803,
              "lat": "27.301693",
              "letter": "B",
              "lng": "105.285011",
              "name": "毕节地区",
              "pid": 2741
              }, {
              "id": 2812,
              "lat": "26.583353",
              "letter": "Q",
              "lng": "107.977486",
              "name": "黔东南苗族侗族自治州",
              "pid": 2741
              }, {
              "id": 2829,
              "lat": "26.258219",
              "letter": "Q",
              "lng": "107.517159",
              "name": "黔南布依族苗族自治州",
              "pid": 2741
              }],
 "id": 2741,
 "lat": "26.578342",
 "letter": "G",
 "lng": "106.713478",
 "name": "贵州省"
 }, {
 "cityList": [{
              "id": 0,
              "lat": "",
              "letter": "",
              "lng": "",
              "name": "不限",
              "pid": 3206
              },{
              "id": 3207,
              "lat": "36.058037",
              "letter": "L",
              "lng": "103.823555",
              "name": "兰州市",
              "pid": 3206
              }, {
              "id": 3217,
              "lat": "39.786530",
              "letter": "J",
              "lng": "98.277306",
              "name": "嘉峪关市",
              "pid": 3206
              }, {
              "id": 3219,
              "lat": "38.514236",
              "letter": "J",
              "lng": "102.187889",
              "name": "金昌市",
              "pid": 3206
              }, {
              "id": 3223,
              "lat": "36.545681",
              "letter": "B",
              "lng": "104.173607",
              "name": "白银市",
              "pid": 3206
              }, {
              "id": 3230,
              "lat": "34.578529",
              "letter": "T",
              "lng": "105.724998",
              "name": "天水市",
              "pid": 3206
              }, {
              "id": 3239,
              "lat": "37.929996",
              "letter": "W",
              "lng": "102.634697",
              "name": "武威市",
              "pid": 3206
              }, {
              "id": 3245,
              "lat": "38.932896",
              "letter": "Z",
              "lng": "100.455475",
              "name": "张掖市",
              "pid": 3206
              }, {
              "id": 3253,
              "lat": "35.542789",
              "letter": "P",
              "lng": "106.684692",
              "name": "平凉市",
              "pid": 3206
              }, {
              "id": 3262,
              "lat": "39.744022",
              "letter": "J",
              "lng": "98.510796",
              "name": "酒泉市",
              "pid": 3206
              }, {
              "id": 3271,
              "lat": "35.734219",
              "letter": "Q",
              "lng": "107.638374",
              "name": "庆阳市",
              "pid": 3206
              }, {
              "id": 3281,
              "lat": "35.579578",
              "letter": "D",
              "lng": "104.626297",
              "name": "定西市",
              "pid": 3206
              }, {
              "id": 3290,
              "lat": "33.388599",
              "letter": "L",
              "lng": "104.929382",
              "name": "陇南市",
              "pid": 3206
              }, {
              "id": 3301,
              "lat": "35.599445",
              "letter": "L",
              "lng": "103.212006",
              "name": "临夏回族自治州",
              "pid": 3206
              }, {
              "id": 3310,
              "lat": "34.986355",
              "letter": "G",
              "lng": "102.911011",
              "name": "甘南藏族自治州",
              "pid": 3206
              }],
 "id": 3206,
 "lat": "36.058037",
 "letter": "G",
 "lng": "103.823555",
 "name": "甘肃省"
 }, {
 "cityList": [{
              "id": 0,
              "lat": "",
              "letter": "",
              "lng": "",
              "name": "不限",
              "pid": 43
              },{
              "id": 44,
              "lat": "38.045475",
              "letter": "S",
              "lng": "114.502464",
              "name": "石家庄市",
              "pid": 43
              }, {
              "id": 69,
              "lat": "39.635113",
              "letter": "T",
              "lng": "118.175392",
              "name": "唐山市",
              "pid": 43
              }, {
              "id": 85,
              "lat": "39.942532",
              "letter": "Q",
              "lng": "119.586578",
              "name": "秦皇岛市",
              "pid": 43
              }, {
              "id": 94,
              "lat": "36.612274",
              "letter": "H",
              "lng": "114.490685",
              "name": "邯郸市",
              "pid": 43
              }, {
              "id": 115,
              "lat": "37.068199",
              "letter": "X",
              "lng": "114.508850",
              "name": "邢台市",
              "pid": 43
              }, {
              "id": 136,
              "lat": "38.867657",
              "letter": "B",
              "lng": "115.482330",
              "name": "保定市",
              "pid": 43
              }, {
              "id": 163,
              "lat": "40.811901",
              "letter": "Z",
              "lng": "114.884094",
              "name": "张家口市",
              "pid": 43
              }, {
              "id": 182,
              "lat": "40.976204",
              "letter": "C",
              "lng": "117.939156",
              "name": "承德市",
              "pid": 43
              }, {
              "id": 195,
              "lat": "38.310581",
              "letter": "C",
              "lng": "116.857460",
              "name": "沧州市",
              "pid": 43
              }, {
              "id": 213,
              "lat": "39.523926",
              "letter": "L",
              "lng": "116.704445",
              "name": "廊坊市",
              "pid": 43
              }, {
              "id": 225,
              "lat": "37.735096",
              "letter": "H",
              "lng": "115.665993",
              "name": "衡水市",
              "pid": 43
              }],
 "id": 43,
 "lat": "38.045475",
 "letter": "H",
 "lng": "114.502464",
 "name": "河北省"
 }, {
 "cityList": [{
              "id": 0,
              "lat": "",
              "letter": "",
              "lng": "",
              "name": "不限",
              "pid": 709
              },{
              "id": 710,
              "lat": "45.756966",
              "letter": "H",
              "lng": "126.642464",
              "name": "哈尔滨市",
              "pid": 709
              }, {
              "id": 731,
              "lat": "47.342079",
              "letter": "Q",
              "lng": "123.957916",
              "name": "齐齐哈尔市",
              "pid": 709
              }, {
              "id": 749,
              "lat": "45.300045",
              "letter": "J",
              "lng": "130.975967",
              "name": "鸡西市",
              "pid": 709
              }, {
              "id": 760,
              "lat": "47.332085",
              "letter": "H",
              "lng": "130.277481",
              "name": "鹤岗市",
              "pid": 709
              }, {
              "id": 770,
              "lat": "46.643440",
              "letter": "S",
              "lng": "131.157303",
              "name": "双鸭山市",
              "pid": 709
              }, {
              "id": 780,
              "lat": "46.590733",
              "letter": "D",
              "lng": "125.112717",
              "name": "大庆市",
              "pid": 709
              }, {
              "id": 791,
              "lat": "47.724773",
              "letter": "Y",
              "lng": "128.899399",
              "name": "伊春市",
              "pid": 709
              }, {
              "id": 810,
              "lat": "46.809605",
              "letter": "J",
              "lng": "130.361633",
              "name": "佳木斯市",
              "pid": 709
              }, {
              "id": 823,
              "lat": "45.771267",
              "letter": "Q",
              "lng": "131.015579",
              "name": "七台河市",
              "pid": 709
              }, {
              "id": 829,
              "lat": "44.582962",
              "letter": "M",
              "lng": "129.618607",
              "name": "牡丹江市",
              "pid": 709
              }, {
              "id": 841,
              "lat": "50.249584",
              "letter": "H",
              "lng": "127.499023",
              "name": "黑河市",
              "pid": 709
              }, {
              "id": 849,
              "lat": "46.637394",
              "letter": "S",
              "lng": "126.992928",
              "name": "绥化市",
              "pid": 709
              }, {
              "id": 861,
              "lat": "52.335262",
              "letter": "D",
              "lng": "124.711525",
              "name": "大兴安岭地区",
              "pid": 709
              }],
 "id": 709,
 "lat": "45.756966",
 "letter": "H",
 "lng": "126.642464",
 "name": "黑龙江省"
 }, {
 "cityList": [{
              "id": 0,
              "lat": "",
              "letter": "",
              "lng": "",
              "name": "不限",
              "pid": 1674
              },{
              "id": 1675,
              "lat": "34.757977",
              "letter": "Z",
              "lng": "113.665413",
              "name": "郑州市",
              "pid": 1674
              }, {
              "id": 1689,
              "lat": "34.797050",
              "letter": "K",
              "lng": "114.341446",
              "name": "开封市",
              "pid": 1674
              }, {
              "id": 1701,
              "lat": "34.663040",
              "letter": "L",
              "lng": "112.434471",
              "name": "洛阳市",
              "pid": 1674
              }, {
              "id": 1718,
              "lat": "33.735241",
              "letter": "P",
              "lng": "113.307716",
              "name": "平顶山市",
              "pid": 1674
              }, {
              "id": 1730,
              "lat": "36.103443",
              "letter": "A",
              "lng": "114.352486",
              "name": "安阳市",
              "pid": 1674
              }, {
              "id": 1741,
              "lat": "35.748238",
              "letter": "H",
              "lng": "114.295441",
              "name": "鹤壁市",
              "pid": 1674
              }, {
              "id": 1748,
              "lat": "35.302616",
              "letter": "X",
              "lng": "113.883987",
              "name": "新乡市",
              "pid": 1674
              }, {
              "id": 1762,
              "lat": "35.239040",
              "letter": "J",
              "lng": "113.238266",
              "name": "焦作市",
              "pid": 1674
              }, {
              "id": 1775,
              "lat": "35.768234",
              "letter": "P",
              "lng": "115.041298",
              "name": "濮阳市",
              "pid": 1674
              }, {
              "id": 1783,
              "lat": "34.022957",
              "letter": "X",
              "lng": "113.826065",
              "name": "许昌市",
              "pid": 1674
              }, {
              "id": 1791,
              "lat": "33.575855",
              "letter": "L",
              "lng": "114.026405",
              "name": "漯河市",
              "pid": 1674
              }, {
              "id": 1798,
              "lat": "34.777340",
              "letter": "S",
              "lng": "111.194099",
              "name": "三门峡市",
              "pid": 1674
              }, {
              "id": 1806,
              "lat": "32.999081",
              "letter": "N",
              "lng": "112.540916",
              "name": "南阳市",
              "pid": 1674
              }, {
              "id": 1821,
              "lat": "34.437054",
              "letter": "S",
              "lng": "115.650497",
              "name": "商丘市",
              "pid": 1674
              }, {
              "id": 1832,
              "lat": "32.123276",
              "letter": "X",
              "lng": "114.075027",
              "name": "信阳市",
              "pid": 1674
              }, {
              "id": 1844,
              "lat": "33.620358",
              "letter": "Z",
              "lng": "114.649651",
              "name": "周口市",
              "pid": 1674
              }, {
              "id": 1856,
              "lat": "32.980167",
              "letter": "Z",
              "lng": "114.024734",
              "name": "驻马店市",
              "pid": 1674
              }],
 "id": 1674,
 "lat": "34.757977",
 "letter": "H",
 "lng": "113.665413",
 "name": "河南省"
 }, {
 "cityList": [{
              "id": 0,
              "lat": "",
              "letter": "",
              "lng": "",
              "name": "不限",
              "pid": 1868
              },{
              "id": 1869,
              "lat": "30.584354",
              "letter": "W",
              "lng": "114.298569",
              "name": "武汉市",
              "pid": 1868
              }, {
              "id": 1884,
              "lat": "30.220074",
              "letter": "H",
              "lng": "115.077049",
              "name": "黄石市",
              "pid": 1868
              }, {
              "id": 1892,
              "lat": "32.646908",
              "letter": "S",
              "lng": "110.787918",
              "name": "十堰市",
              "pid": 1868
              }, {
              "id": 1902,
              "lat": "30.702637",
              "letter": "Y",
              "lng": "111.290840",
              "name": "宜昌市",
              "pid": 1868
              }, {
              "id": 1917,
              "lat": "32.042427",
              "letter": "X",
              "lng": "112.144150",
              "name": "襄樊市",
              "pid": 1868
              }, {
              "id": 1928,
              "lat": "30.396536",
              "letter": "E",
              "lng": "114.890594",
              "name": "鄂州市",
              "pid": 1868
              }, {
              "id": 1933,
              "lat": "31.035419",
              "letter": "J",
              "lng": "112.204254",
              "name": "荆门市",
              "pid": 1868
              }, {
              "id": 1940,
              "lat": "30.926422",
              "letter": "X",
              "lng": "113.926659",
              "name": "孝感市",
              "pid": 1868
              }, {
              "id": 1949,
              "lat": "30.326857",
              "letter": "J",
              "lng": "112.238129",
              "name": "荆州市",
              "pid": 1868
              }, {
              "id": 1959,
              "lat": "30.447710",
              "letter": "H",
              "lng": "114.879364",
              "name": "黄冈市",
              "pid": 1868
              }, {
              "id": 1971,
              "lat": "29.832798",
              "letter": "X",
              "lng": "114.328964",
              "name": "咸宁市",
              "pid": 1868
              }, {
              "id": 1979,
              "lat": "31.717497",
              "letter": "S",
              "lng": "113.373772",
              "name": "随州市",
              "pid": 1868
              }, {
              "id": 1983,
              "lat": "30.283113",
              "letter": "E",
              "lng": "109.486992",
              "name": "恩施土家族苗族自治州",
              "pid": 1868
              }],
 "id": 1868,
 "lat": "30.584354",
 "letter": "H",
 "lng": "114.298569",
 "name": "湖北省"
 }, {
 "cityList": [{
              "id": 0,
              "lat": "",
              "letter": "",
              "lng": "",
              "name": "不限",
              "pid": 1997
              },{
              "id": 1998,
              "lat": "28.194090",
              "letter": "Z",
              "lng": "112.982277",
              "name": "长沙市",
              "pid": 1997
              }, {
              "id": 2009,
              "lat": "27.835806",
              "letter": "Z",
              "lng": "113.151733",
              "name": "株洲市",
              "pid": 1997
              }, {
              "id": 2020,
              "lat": "27.829731",
              "letter": "X",
              "lng": "112.944054",
              "name": "湘潭市",
              "pid": 1997
              }, {
              "id": 2027,
              "lat": "26.900358",
              "letter": "H",
              "lng": "112.607689",
              "name": "衡阳市",
              "pid": 1997
              }, {
              "id": 2041,
              "lat": "27.237843",
              "letter": "S",
              "lng": "111.469231",
              "name": "邵阳市",
              "pid": 1997
              }, {
              "id": 2055,
              "lat": "29.370291",
              "letter": "Y",
              "lng": "113.132858",
              "name": "岳阳市",
              "pid": 1997
              }, {
              "id": 2066,
              "lat": "29.040224",
              "letter": "C",
              "lng": "111.691345",
              "name": "常德市",
              "pid": 1997
              }, {
              "id": 2077,
              "lat": "29.127401",
              "letter": "Z",
              "lng": "110.479919",
              "name": "张家界市",
              "pid": 1997
              }, {
              "id": 2083,
              "lat": "28.570066",
              "letter": "Y",
              "lng": "112.355042",
              "name": "益阳市",
              "pid": 1997
              }, {
              "id": 2091,
              "lat": "25.793589",
              "letter": "C",
              "lng": "113.032066",
              "name": "郴州市",
              "pid": 1997
              }, {
              "id": 2104,
              "lat": "26.434515",
              "letter": "Y",
              "lng": "111.608017",
              "name": "永州市",
              "pid": 1997
              }, {
              "id": 2117,
              "lat": "27.550081",
              "letter": "H",
              "lng": "109.978241",
              "name": "怀化市",
              "pid": 1997
              }, {
              "id": 2131,
              "lat": "27.728136",
              "letter": "L",
              "lng": "112.008499",
              "name": "娄底市",
              "pid": 1997
              }, {
              "id": 2138,
              "lat": "28.314297",
              "letter": "X",
              "lng": "109.739738",
              "name": "湘西土家族苗族自治州",
              "pid": 1997
              }],
 "id": 1997,
 "lat": "28.194090",
 "letter": "H",
 "lng": "112.982277",
 "name": "湖南省"
 }, {
 "cityList": [{
              "id": 0,
              "lat": "",
              "letter": "",
              "lng": "",
              "name": "不限",
              "pid": 2447
              },{
              "id": 2448,
              "lat": "20.031971",
              "letter": "H",
              "lng": "110.331192",
              "name": "海口市",
              "pid": 2447
              }, {
              "id": 2454,
              "lat": "18.247871",
              "letter": "S",
              "lng": "109.508270",
              "name": "三亚市",
              "pid": 2447
              }],
 "id": 2447,
 "lat": "20.031971",
 "letter": "H",
 "lng": "110.331192",
 "name": "海南省"
 }, {
 "cityList": [{
              "id": 0,
              "lat": "",
              "letter": "",
              "lng": "",
              "name": "不限",
              "pid": 631
              },{
              "id": 632,
              "lat": "43.886841",
              "letter": "Z",
              "lng": "125.324501",
              "name": "长春市",
              "pid": 631
              }, {
              "id": 644,
              "lat": "43.843578",
              "letter": "J",
              "lng": "126.553017",
              "name": "吉林市",
              "pid": 631
              }, {
              "id": 655,
              "lat": "43.170345",
              "letter": "S",
              "lng": "124.370781",
              "name": "四平市",
              "pid": 631
              }, {
              "id": 663,
              "lat": "42.902691",
              "letter": "L",
              "lng": "125.145348",
              "name": "辽源市",
              "pid": 631
              }, {
              "id": 669,
              "lat": "41.721176",
              "letter": "T",
              "lng": "125.936501",
              "name": "通化市",
              "pid": 631
              }, {
              "id": 678,
              "lat": "41.942505",
              "letter": "B",
              "lng": "126.427841",
              "name": "白山市",
              "pid": 631
              }, {
              "id": 686,
              "lat": "45.118244",
              "letter": "S",
              "lng": "124.823608",
              "name": "松原市",
              "pid": 631
              }, {
              "id": 693,
              "lat": "45.619026",
              "letter": "B",
              "lng": "122.841110",
              "name": "白城市",
              "pid": 631
              }, {
              "id": 700,
              "lat": "42.904823",
              "letter": "Y",
              "lng": "129.513229",
              "name": "延边朝鲜族自治州",
              "pid": 631
              }],
 "id": 631,
 "lat": "43.886841",
 "letter": "J",
 "lng": "125.324501",
 "name": "吉林省"
 }, {
 "cityList": [{
              "id": 0,
              "lat": "",
              "letter": "",
              "lng": "",
              "name": "不限",
              "pid": 887
              },{
              "id": 888,
              "lat": "32.041542",
              "letter": "N",
              "lng": "118.767410",
              "name": "南京市",
              "pid": 887
              }, {
              "id": 903,
              "lat": "31.574728",
              "letter": "W",
              "lng": "120.301666",
              "name": "无锡市",
              "pid": 887
              }, {
              "id": 913,
              "lat": "34.261791",
              "letter": "X",
              "lng": "117.184814",
              "name": "徐州市",
              "pid": 887
              }, {
              "id": 926,
              "lat": "31.772753",
              "letter": "C",
              "lng": "119.946976",
              "name": "常州市",
              "pid": 887
              }, {
              "id": 935,
              "lat": "31.299379",
              "letter": "S",
              "lng": "120.619583",
              "name": "苏州市",
              "pid": 887
              }, {
              "id": 948,
              "lat": "32.016212",
              "letter": "N",
              "lng": "120.864609",
              "name": "南通市",
              "pid": 887
              }, {
              "id": 958,
              "lat": "34.600018",
              "letter": "L",
              "lng": "119.178818",
              "name": "连云港市",
              "pid": 887
              }, {
              "id": 967,
              "lat": "33.597507",
              "letter": "H",
              "lng": "119.021263",
              "name": "淮安市",
              "pid": 887
              }, {
              "id": 977,
              "lat": "33.377632",
              "letter": "Y",
              "lng": "120.139999",
              "name": "盐城市",
              "pid": 887
              }, {
              "id": 988,
              "lat": "32.393158",
              "letter": "Y",
              "lng": "119.421005",
              "name": "扬州市",
              "pid": 887
              }, {
              "id": 997,
              "lat": "32.204403",
              "letter": "Z",
              "lng": "119.452751",
              "name": "镇江市",
              "pid": 887
              }, {
              "id": 1005,
              "lat": "32.484882",
              "letter": "T",
              "lng": "119.915176",
              "name": "泰州市",
              "pid": 887
              }, {
              "id": 1013,
              "lat": "33.963009",
              "letter": "S",
              "lng": "118.275162",
              "name": "宿迁市",
              "pid": 887
              }],
 "id": 887,
 "lat": "32.041542",
 "letter": "J",
 "lng": "118.767410",
 "name": "江苏省"
 }, {
 "cityList": [{
              "id": 0,
              "lat": "",
              "letter": "",
              "lng": "",
              "name": "不限",
              "pid": 1377
              },{
              "id": 1378,
              "lat": "28.676493",
              "letter": "N",
              "lng": "115.892151",
              "name": "南昌市",
              "pid": 1377
              }, {
              "id": 1389,
              "lat": "29.292561",
              "letter": "J",
              "lng": "117.214661",
              "name": "景德镇市",
              "pid": 1377
              }, {
              "id": 1395,
              "lat": "27.622946",
              "letter": "P",
              "lng": "113.852188",
              "name": "萍乡市",
              "pid": 1377
              }, {
              "id": 1402,
              "lat": "29.712034",
              "letter": "J",
              "lng": "115.992813",
              "name": "九江市",
              "pid": 1377
              }, {
              "id": 1416,
              "lat": "27.810835",
              "letter": "X",
              "lng": "114.930832",
              "name": "新余市",
              "pid": 1377
              }, {
              "id": 1420,
              "lat": "28.238638",
              "letter": "Y",
              "lng": "117.033836",
              "name": "鹰潭市",
              "pid": 1377
              }, {
              "id": 1425,
              "lat": "25.850969",
              "letter": "G",
              "lng": "114.940277",
              "name": "赣州市",
              "pid": 1377
              }, {
              "id": 1445,
              "lat": "27.111698",
              "letter": "J",
              "lng": "114.986374",
              "name": "吉安市",
              "pid": 1377
              }, {
              "id": 1460,
              "lat": "27.804300",
              "letter": "Y",
              "lng": "114.391136",
              "name": "宜春市",
              "pid": 1377
              }, {
              "id": 1472,
              "lat": "27.983850",
              "letter": "F",
              "lng": "116.358353",
              "name": "抚州市",
              "pid": 1377
              }, {
              "id": 1485,
              "lat": "28.444420",
              "letter": "S",
              "lng": "117.971184",
              "name": "上饶市",
              "pid": 1377
              }],
 "id": 1377,
 "lat": "28.676493",
 "letter": "J",
 "lng": "115.892151",
 "name": "江西省"
 }, {
 "cityList": [{
              "id": 0,
              "lat": "",
              "letter": "",
              "lng": "",
              "name": "不限",
              "pid": 502
              },{
              "id": 503,
              "lat": "41.796768",
              "letter": "S",
              "lng": "123.429092",
              "name": "沈阳市",
              "pid": 502
              }, {
              "id": 518,
              "lat": "38.914589",
              "letter": "D",
              "lng": "121.618622",
              "name": "大连市",
              "pid": 502
              }, {
              "id": 530,
              "lat": "41.110626",
              "letter": "A",
              "lng": "122.995636",
              "name": "鞍山市",
              "pid": 502
              }, {
              "id": 539,
              "lat": "41.875954",
              "letter": "F",
              "lng": "123.921112",
              "name": "抚顺市",
              "pid": 502
              }, {
              "id": 548,
              "lat": "41.297909",
              "letter": "B",
              "lng": "123.770515",
              "name": "本溪市",
              "pid": 502
              }, {
              "id": 556,
              "lat": "40.124294",
              "letter": "D",
              "lng": "124.383041",
              "name": "丹东市",
              "pid": 502
              }, {
              "id": 564,
              "lat": "41.119270",
              "letter": "J",
              "lng": "121.135742",
              "name": "锦州市",
              "pid": 502
              }, {
              "id": 573,
              "lat": "40.667431",
              "letter": "Y",
              "lng": "122.235153",
              "name": "营口市",
              "pid": 502
              }, {
              "id": 581,
              "lat": "42.011795",
              "letter": "F",
              "lng": "121.648964",
              "name": "阜新市",
              "pid": 502
              }, {
              "id": 590,
              "lat": "41.269402",
              "letter": "L",
              "lng": "123.181519",
              "name": "辽阳市",
              "pid": 502
              }, {
              "id": 599,
              "lat": "41.124485",
              "letter": "P",
              "lng": "122.069572",
              "name": "盘锦市",
              "pid": 502
              }, {
              "id": 605,
              "lat": "42.290585",
              "letter": "T",
              "lng": "123.844276",
              "name": "铁岭市",
              "pid": 502
              }, {
              "id": 614,
              "lat": "41.576759",
              "letter": "C",
              "lng": "120.451172",
              "name": "朝阳市",
              "pid": 502
              }, {
              "id": 623,
              "lat": "40.755573",
              "letter": "H",
              "lng": "120.856392",
              "name": "葫芦岛市",
              "pid": 502
              }],
 "id": 502,
 "lat": "41.796768",
 "letter": "L",
 "lng": "123.429092",
 "name": "辽宁省"
 }, {
 "cityList": [{
              "id": 0,
              "lat": "",
              "letter": "",
              "lng": "",
              "name": "不限",
              "pid": 380
              },{
              "id": 381,
              "lat": "40.818310",
              "letter": "H",
              "lng": "111.670799",
              "name": "呼和浩特市",
              "pid": 380
              }, {
              "id": 392,
              "lat": "40.658169",
              "letter": "B",
              "lng": "109.840408",
              "name": "包头市",
              "pid": 380
              }, {
              "id": 403,
              "lat": "39.673733",
              "letter": "W",
              "lng": "106.825562",
              "name": "乌海市",
              "pid": 380
              }, {
              "id": 408,
              "lat": "42.275318",
              "letter": "C",
              "lng": "118.956802",
              "name": "赤峰市",
              "pid": 380
              }, {
              "id": 422,
              "lat": "43.617428",
              "letter": "T",
              "lng": "122.263123",
              "name": "通辽市",
              "pid": 380
              }, {
              "id": 432,
              "lat": "39.817181",
              "letter": "E",
              "lng": "109.990288",
              "name": "鄂尔多斯市",
              "pid": 380
              }, {
              "id": 441,
              "lat": "49.215332",
              "letter": "H",
              "lng": "119.758171",
              "name": "呼伦贝尔市",
              "pid": 380
              }, {
              "id": 456,
              "lat": "40.757401",
              "letter": "B",
              "lng": "107.416962",
              "name": "巴彦淖尔市",
              "pid": 380
              }, {
              "id": 465,
              "lat": "41.034126",
              "letter": "W",
              "lng": "113.114540",
              "name": "乌兰察布市",
              "pid": 380
              }, {
              "id": 478,
              "lat": "46.076267",
              "letter": "X",
              "lng": "122.070320",
              "name": "兴安盟",
              "pid": 380
              }, {
              "id": 485,
              "lat": "43.944019",
              "letter": "X",
              "lng": "116.090996",
              "name": "锡林郭勒盟",
              "pid": 380
              }, {
              "id": 498,
              "lat": "38.844814",
              "letter": "A",
              "lng": "105.706421",
              "name": "阿拉善盟",
              "pid": 380
              }],
 "id": 380,
 "lat": "40.818310",
 "letter": "N",
 "lng": "111.670799",
 "name": "内蒙古自治区"
 }, {
 "cityList": [{
              "id": 0,
              "lat": "",
              "letter": "",
              "lng": "",
              "name": "不限",
              "pid": 3372
              },{
              "id": 3373,
              "lat": "38.466370",
              "letter": "Y",
              "lng": "106.278175",
              "name": "银川市",
              "pid": 3372
              }, {
              "id": 3381,
              "lat": "39.013329",
              "letter": "S",
              "lng": "106.376175",
              "name": "石嘴山市",
              "pid": 3372
              }, {
              "id": 3386,
              "lat": "37.986164",
              "letter": "W",
              "lng": "106.199409",
              "name": "吴忠市",
              "pid": 3372
              }, {
              "id": 3392,
              "lat": "36.004562",
              "letter": "G",
              "lng": "106.285240",
              "name": "固原市",
              "pid": 3372
              }, {
              "id": 3399,
              "lat": "37.514950",
              "letter": "Z",
              "lng": "105.189568",
              "name": "中卫市",
              "pid": 3372
              }],
 "id": 3372,
 "lat": "38.466370",
 "letter": "N",
 "lng": "106.278175",
 "name": "宁夏回族自治区"
 }, {
 "cityList": [{
              "id": 0,
              "lat": "",
              "letter": "",
              "lng": "",
              "name": "不限",
              "pid": 3319
              },{
              "id": 3320,
              "lat": "36.623177",
              "letter": "X",
              "lng": "101.778915",
              "name": "西宁市",
              "pid": 3319
              }, {
              "id": 3329,
              "lat": "31.893150",
              "letter": "H",
              "lng": "121.198479",
              "name": "海东地区",
              "pid": 3319
              }, {
              "id": 3336,
              "lat": "36.959435",
              "letter": "H",
              "lng": "100.901062",
              "name": "海北藏族自治州",
              "pid": 3319
              }, {
              "id": 3341,
              "lat": "35.517742",
              "letter": "H",
              "lng": "102.019989",
              "name": "黄南藏族自治州",
              "pid": 3319
              }, {
              "id": 3346,
              "lat": "36.280354",
              "letter": "H",
              "lng": "100.619545",
              "name": "海南藏族自治州",
              "pid": 3319
              }, {
              "id": 3352,
              "lat": "34.473598",
              "letter": "G",
              "lng": "100.242142",
              "name": "果洛藏族自治州",
              "pid": 3319
              }, {
              "id": 3359,
              "lat": "33.004047",
              "letter": "Y",
              "lng": "97.008522",
              "name": "玉树藏族自治州",
              "pid": 3319
              }, {
              "id": 3366,
              "lat": "37.374664",
              "letter": "H",
              "lng": "97.370789",
              "name": "海西蒙古族藏族自治州",
              "pid": 3319
              }],
 "id": 3319,
 "lat": "36.623177",
 "letter": "Q",
 "lng": "101.778915",
 "name": "青海省"
 }, {
 "cityList": [{
              "id": 0,
              "lat": "",
              "letter": "",
              "lng": "",
              "name": "不限",
              "pid": 238
              },{
              "id": 239,
              "lat": "37.857014",
              "letter": "T",
              "lng": "112.549248",
              "name": "太原市",
              "pid": 238
              }, {
              "id": 251,
              "lat": "40.090309",
              "letter": "D",
              "lng": "113.295258",
              "name": "大同市",
              "pid": 238
              }, {
              "id": 264,
              "lat": "37.861187",
              "letter": "Y",
              "lng": "113.583282",
              "name": "阳泉市",
              "pid": 238
              }, {
              "id": 271,
              "lat": "36.191113",
              "letter": "Z",
              "lng": "113.113556",
              "name": "长治市",
              "pid": 238
              }, {
              "id": 286,
              "lat": "35.497551",
              "letter": "J",
              "lng": "112.851273",
              "name": "晋城市",
              "pid": 238
              }, {
              "id": 294,
              "lat": "39.331261",
              "letter": "S",
              "lng": "112.433388",
              "name": "朔州市",
              "pid": 238
              }, {
              "id": 302,
              "lat": "37.696495",
              "letter": "J",
              "lng": "112.736465",
              "name": "晋中市",
              "pid": 238
              }, {
              "id": 315,
              "lat": "35.022778",
              "letter": "Y",
              "lng": "111.003960",
              "name": "运城市",
              "pid": 238
              }, {
              "id": 330,
              "lat": "38.417690",
              "letter": "X",
              "lng": "112.733536",
              "name": "忻州市",
              "pid": 238
              }, {
              "id": 346,
              "lat": "36.084148",
              "letter": "L",
              "lng": "111.517975",
              "name": "临汾市",
              "pid": 238
              }, {
              "id": 365,
              "lat": "37.524368",
              "letter": "L",
              "lng": "111.134331",
              "name": "吕梁市",
              "pid": 238
              }],
 "id": 238,
 "lat": "37.857014",
 "letter": "S",
 "lng": "112.549248",
 "name": "山西省"
 }, {
 "cityList": [{
              "id": 0,
              "lat": "",
              "letter": "",
              "lng": "",
              "name": "不限",
              "pid": 865
              },{
              "id": 866,
              "lat": "31.231707",
              "letter": "S",
              "lng": "121.472641",
              "name": "上海市",
              "pid": 865
              }],
 "id": 865,
 "lat": "31.231707",
 "letter": "S",
 "lng": "121.472641",
 "name": "上海"
 }, {
 "cityList": [{
              "id": 0,
              "lat": "",
              "letter": "",
              "lng": "",
              "name": "不限",
              "pid": 1499
              },{
              "id": 1500,
              "lat": "36.675808",
              "letter": "J",
              "lng": "117.000923",
              "name": "济南市",
              "pid": 1499
              }, {
              "id": 1512,
              "lat": "36.082981",
              "letter": "Q",
              "lng": "120.355171",
              "name": "青岛市",
              "pid": 1499
              }, {
              "id": 1526,
              "lat": "36.814938",
              "letter": "Z",
              "lng": "118.047646",
              "name": "淄博市",
              "pid": 1499
              }, {
              "id": 1536,
              "lat": "34.856422",
              "letter": "Z",
              "lng": "117.557961",
              "name": "枣庄市",
              "pid": 1499
              }, {
              "id": 1544,
              "lat": "37.434563",
              "letter": "D",
              "lng": "118.664711",
              "name": "东营市",
              "pid": 1499
              }, {
              "id": 1551,
              "lat": "37.539299",
              "letter": "Y",
              "lng": "121.391380",
              "name": "烟台市",
              "pid": 1499
              }, {
              "id": 1565,
              "lat": "36.709251",
              "letter": "W",
              "lng": "119.107079",
              "name": "潍坊市",
              "pid": 1499
              }, {
              "id": 1579,
              "lat": "35.415394",
              "letter": "J",
              "lng": "116.587242",
              "name": "济宁市",
              "pid": 1499
              }, {
              "id": 1593,
              "lat": "36.194969",
              "letter": "T",
              "lng": "117.129059",
              "name": "泰安市",
              "pid": 1499
              }, {
              "id": 1601,
              "lat": "37.509693",
              "letter": "W",
              "lng": "122.116394",
              "name": "威海市",
              "pid": 1499
              }, {
              "id": 1607,
              "lat": "35.428589",
              "letter": "R",
              "lng": "119.461205",
              "name": "日照市",
              "pid": 1499
              }, {
              "id": 1613,
              "lat": "36.214397",
              "letter": "L",
              "lng": "117.677734",
              "name": "莱芜市",
              "pid": 1499
              }, {
              "id": 1617,
              "lat": "35.065281",
              "letter": "L",
              "lng": "118.326447",
              "name": "临沂市",
              "pid": 1499
              }, {
              "id": 1631,
              "lat": "37.453968",
              "letter": "D",
              "lng": "116.307426",
              "name": "德州市",
              "pid": 1499
              }, {
              "id": 1644,
              "lat": "36.456013",
              "letter": "L",
              "lng": "115.980370",
              "name": "聊城市",
              "pid": 1499
              }, {
              "id": 1654,
              "lat": "37.383541",
              "letter": "B",
              "lng": "118.016975",
              "name": "滨州市",
              "pid": 1499
              }],
 "id": 1499,
 "lat": "36.675808",
 "letter": "S",
 "lng": "117.000923",
 "name": "山东省"
 }, {
 "cityList": [{
              "id": 0,
              "lat": "",
              "letter": "",
              "lng": "",
              "name": "不限",
              "pid": 2520
              },{
              "id": 2521,
              "lat": "30.659462",
              "letter": "C",
              "lng": "104.065735",
              "name": "成都市",
              "pid": 2520
              }, {
              "id": 2542,
              "lat": "29.352764",
              "letter": "Z",
              "lng": "104.773445",
              "name": "自贡市",
              "pid": 2520
              }, {
              "id": 2550,
              "lat": "26.580446",
              "letter": "P",
              "lng": "101.716003",
              "name": "攀枝花市",
              "pid": 2520
              }, {
              "id": 2557,
              "lat": "28.889137",
              "letter": "L",
              "lng": "105.443352",
              "name": "泸州市",
              "pid": 2520
              }, {
              "id": 2566,
              "lat": "31.127991",
              "letter": "D",
              "lng": "104.398651",
              "name": "德阳市",
              "pid": 2520
              }, {
              "id": 2574,
              "lat": "31.464020",
              "letter": "M",
              "lng": "104.741722",
              "name": "绵阳市",
              "pid": 2520
              }, {
              "id": 2585,
              "lat": "32.433666",
              "letter": "G",
              "lng": "105.829758",
              "name": "广元市",
              "pid": 2520
              }, {
              "id": 2594,
              "lat": "30.513311",
              "letter": "S",
              "lng": "105.571327",
              "name": "遂宁市",
              "pid": 2520
              }, {
              "id": 2601,
              "lat": "29.587080",
              "letter": "N",
              "lng": "105.066139",
              "name": "内江市",
              "pid": 2520
              }, {
              "id": 2608,
              "lat": "29.582024",
              "letter": "L",
              "lng": "103.761261",
              "name": "乐山市",
              "pid": 2520
              }, {
              "id": 2621,
              "lat": "30.795280",
              "letter": "N",
              "lng": "106.082977",
              "name": "南充市",
              "pid": 2520
              }, {
              "id": 2632,
              "lat": "30.048317",
              "letter": "M",
              "lng": "103.831787",
              "name": "眉山市",
              "pid": 2520
              }, {
              "id": 2640,
              "lat": "28.760189",
              "letter": "Y",
              "lng": "104.630821",
              "name": "宜宾市",
              "pid": 2520
              }, {
              "id": 2652,
              "lat": "30.456398",
              "letter": "G",
              "lng": "106.633369",
              "name": "广安市",
              "pid": 2520
              }, {
              "id": 2659,
              "lat": "31.209484",
              "letter": "D",
              "lng": "107.502258",
              "name": "达州市",
              "pid": 2520
              }, {
              "id": 2668,
              "lat": "29.987720",
              "letter": "Y",
              "lng": "103.001030",
              "name": "雅安市",
              "pid": 2520
              }, {
              "id": 2678,
              "lat": "31.858809",
              "letter": "B",
              "lng": "106.753670",
              "name": "巴中市",
              "pid": 2520
              }, {
              "id": 2684,
              "lat": "30.122211",
              "letter": "Z",
              "lng": "104.641914",
              "name": "资阳市",
              "pid": 2520
              }, {
              "id": 2690,
              "lat": "31.899792",
              "letter": "A",
              "lng": "102.221375",
              "name": "阿坝藏族羌族自治州",
              "pid": 2520
              }, {
              "id": 2704,
              "lat": "30.050663",
              "letter": "G",
              "lng": "101.963814",
              "name": "甘孜藏族自治州",
              "pid": 2520
              }, {
              "id": 2723,
              "lat": "27.886761",
              "letter": "L",
              "lng": "102.258743",
              "name": "凉山彝族自治州",
              "pid": 2520
              }],
 "id": 2520,
 "lat": "30.659462",
 "letter": "S",
 "lng": "104.065735",
 "name": "四川省"
 }, {
 "cityList": [{
              "id": 0,
              "lat": "",
              "letter": "",
              "lng": "",
              "name": "不限",
              "pid": 3078
              },{
              "id": 3079,
              "lat": "34.263161",
              "letter": "X",
              "lng": "108.948021",
              "name": "西安市",
              "pid": 3078
              }, {
              "id": 3094,
              "lat": "34.916580",
              "letter": "T",
              "lng": "108.979607",
              "name": "铜川市",
              "pid": 3078
              }, {
              "id": 3100,
              "lat": "34.369316",
              "letter": "B",
              "lng": "107.144867",
              "name": "宝鸡市",
              "pid": 3078
              }, {
              "id": 3114,
              "lat": "34.333439",
              "letter": "X",
              "lng": "108.705116",
              "name": "咸阳市",
              "pid": 3078
              }, {
              "id": 3130,
              "lat": "34.499382",
              "letter": "W",
              "lng": "109.502884",
              "name": "渭南市",
              "pid": 3078
              }, {
              "id": 3143,
              "lat": "36.596539",
              "letter": "Y",
              "lng": "109.490807",
              "name": "延安市",
              "pid": 3078
              }, {
              "id": 3158,
              "lat": "33.077667",
              "letter": "H",
              "lng": "107.028618",
              "name": "汉中市",
              "pid": 3078
              }, {
              "id": 3171,
              "lat": "38.290161",
              "letter": "Y",
              "lng": "109.741196",
              "name": "榆林市",
              "pid": 3078
              }, {
              "id": 3185,
              "lat": "32.690300",
              "letter": "A",
              "lng": "109.029274",
              "name": "安康市",
              "pid": 3078
              }, {
              "id": 3197,
              "lat": "33.868320",
              "letter": "S",
              "lng": "109.939774",
              "name": "商洛市",
              "pid": 3078
              }],
 "id": 3078,
 "lat": "34.263161",
 "letter": "S",
 "lng": "108.948021",
 "name": "陕西省"
 }, {
 "cityList": [{
              "id": 0,
              "lat": "",
              "letter": "",
              "lng": "",
              "name": "不限",
              "pid": 22
              },{
              "id": 23,
              "lat": "39.125595",
              "letter": "S",
              "lng": "117.190186",
              "name": "天津市",
              "pid": 22
              }],
 "id": 22,
 "lat": "39.125595",
 "letter": "T",
 "lng": "117.190186",
 "name": "天津"
 }, {
 "cityList": [{
              "id": 0,
              "lat": "",
              "letter": "",
              "lng": "",
              "name": "不限",
              "pid": 3521
              },{
              "id": 4570,
              "lat": "38.959846",
              "letter": "T",
              "lng": "121.353897",
              "name": "台南",
              "pid": 3521
              }, {
              "id": 4640,
              "lat": "24.436417",
              "letter": "J",
              "lng": "118.323219",
              "name": "金门",
              "pid": 3521
              }, {
              "id": 4670,
              "lat": "49.215767",
              "letter": "X",
              "lng": "119.760742",
              "name": "新竹",
              "pid": 3521
              }, {
              "id": 4679,
              "lat": "31.824663",
              "letter": "X",
              "lng": "119.974655",
              "name": "新北",
              "pid": 3521
              }, {
              "id": 4737,
              "lat": "32.663643",
              "letter": "T",
              "lng": "106.809906",
              "name": "桃园",
              "pid": 3521
              }, {
              "id": 4909,
              "lat": "26.202108",
              "letter": "L",
              "lng": "119.538368",
              "name": "连江",
              "pid": 3521
              }],
 "id": 3521,
 "lat": "25.044333",
 "letter": "T",
 "lng": "121.509064",
 "name": "台湾省"
 }, {
 "cityList": [{
              "id": 0,
              "lat": "",
              "letter": "",
              "lng": "",
              "name": "不限",
              "pid": 2996
              },{
              "id": 2997,
              "lat": "29.660360",
              "letter": "L",
              "lng": "91.132210",
              "name": "拉萨市",
              "pid": 2996
              }, {
              "id": 3019,
              "lat": "29.236023",
              "letter": "S",
              "lng": "91.766525",
              "name": "山南地区",
              "pid": 2996
              }, {
              "id": 3051,
              "lat": "31.476004",
              "letter": "N",
              "lng": "92.060211",
              "name": "那曲地区",
              "pid": 2996
              }, {
              "id": 3062,
              "lat": "32.503189",
              "letter": "A",
              "lng": "80.105499",
              "name": "阿里地区",
              "pid": 2996
              }, {
              "id": 3070,
              "lat": "29.654694",
              "letter": "L",
              "lng": "94.362350",
              "name": "林芝地区",
              "pid": 2996
              }],
 "id": 2996,
 "lat": "29.660360",
 "letter": "X",
 "lng": "91.132210",
 "name": "西藏自治区"
 }, {
 "cityList": [{
              "id": 0,
              "lat": "",
              "letter": "",
              "lng": "",
              "name": "不限",
              "pid": 3404
              },{
              "id": 3405,
              "lat": "43.792816",
              "letter": "W",
              "lng": "87.617737",
              "name": "乌鲁木齐市",
              "pid": 3404
              }, {
              "id": 3415,
              "lat": "45.595886",
              "letter": "K",
              "lng": "84.873947",
              "name": "克拉玛依市",
              "pid": 3404
              }, {
              "id": 3421,
              "lat": "42.947613",
              "letter": "T",
              "lng": "89.184074",
              "name": "吐鲁番地区",
              "pid": 3404
              }, {
              "id": 3425,
              "lat": "42.833248",
              "letter": "H",
              "lng": "93.513161",
              "name": "哈密地区",
              "pid": 3404
              }, {
              "id": 3429,
              "lat": "44.014576",
              "letter": "C",
              "lng": "87.304008",
              "name": "昌吉回族自治州",
              "pid": 3404
              }, {
              "id": 3438,
              "lat": "44.903259",
              "letter": "B",
              "lng": "82.074776",
              "name": "博尔塔拉蒙古自治州",
              "pid": 3404
              }, {
              "id": 3442,
              "lat": "41.768551",
              "letter": "B",
              "lng": "86.150970",
              "name": "巴音郭楞蒙古自治州",
              "pid": 3404
              }, {
              "id": 3452,
              "lat": "41.170712",
              "letter": "A",
              "lng": "80.265068",
              "name": "阿克苏地区",
              "pid": 3404
              }, {
              "id": 3462,
              "lat": "39.713432",
              "letter": "K",
              "lng": "76.172821",
              "name": "克孜勒苏柯尔克孜自治州",
              "pid": 3404
              }, {
              "id": 3467,
              "lat": "39.467663",
              "letter": "K",
              "lng": "75.989136",
              "name": "喀什地区",
              "pid": 3404
              }, {
              "id": 3480,
              "lat": "37.110687",
              "letter": "H",
              "lng": "79.925331",
              "name": "和田地区",
              "pid": 3404
              }, {
              "id": 3489,
              "lat": "43.921860",
              "letter": "Y",
              "lng": "81.317947",
              "name": "伊犁哈萨克自治州",
              "pid": 3404
              }, {
              "id": 3500,
              "lat": "46.746300",
              "letter": "T",
              "lng": "82.985733",
              "name": "塔城地区",
              "pid": 3404
              }, {
              "id": 3508,
              "lat": "47.848392",
              "letter": "A",
              "lng": "88.139633",
              "name": "阿勒泰地区",
              "pid": 3404
              }],
 "id": 3404,
 "lat": "43.792816",
 "letter": "X",
 "lng": "87.617737",
 "name": "新疆维吾尔自治区"
 }, {
 "cityList": [{
              "id": 0,
              "lat": "",
              "letter": "",
              "lng": "",
              "name": "不限",
              "pid": 3522
              },{
              "id": 4914,
              "lat": "23.033573",
              "letter": "X",
              "lng": "113.756523",
              "name": "香港岛",
              "pid": 3522
              }, {
              "id": 4918,
              "lat": "29.001974",
              "letter": "J",
              "lng": "101.506943",
              "name": "九龙",
              "pid": 3522
              }],
 "id": 3522,
 "lat": "22.320047",
 "letter": "X",
 "lng": "114.173355",
 "name": "香港"
 }, {
 "cityList": [{
              "id": 0,
              "lat": "",
              "letter": "",
              "lng": "",
              "name": "不限",
              "pid": 3522
              },{
              "id": 2842,
              "lat": "25.040609",
              "letter": "K",
              "lng": "102.712250",
              "name": "昆明市",
              "pid": 2842
              }, {
              "id": 2859,
              "lat": "25.501556",
              "letter": "Q",
              "lng": "103.797852",
              "name": "曲靖市",
              "pid": 2842
              }, {
              "id": 2870,
              "lat": "24.350460",
              "letter": "Y",
              "lng": "102.543907",
              "name": "玉溪市",
              "pid": 2842
              }, {
              "id": 2881,
              "lat": "25.111803",
              "letter": "B",
              "lng": "99.167130",
              "name": "保山市",
              "pid": 2842
              }, {
              "id": 2888,
              "lat": "27.337000",
              "letter": "Z",
              "lng": "103.717216",
              "name": "昭通市",
              "pid": 2842
              }, {
              "id": 2901,
              "lat": "26.872108",
              "letter": "L",
              "lng": "100.233025",
              "name": "丽江市",
              "pid": 2842
              }, {
              "id": 2908,
              "lat": "22.777321",
              "letter": "S",
              "lng": "100.972343",
              "name": "普洱市",
              "pid": 2842
              }, {
              "id": 2920,
              "lat": "23.886566",
              "letter": "L",
              "lng": "100.086967",
              "name": "临沧市",
              "pid": 2842
              }, {
              "id": 2930,
              "lat": "25.041988",
              "letter": "C",
              "lng": "101.546043",
              "name": "楚雄彝族自治州",
              "pid": 2842
              }, {
              "id": 2941,
              "lat": "23.366776",
              "letter": "H",
              "lng": "103.384178",
              "name": "红河哈尼族彝族自治州",
              "pid": 2842
              }, {
              "id": 2955,
              "lat": "23.369511",
              "letter": "W",
              "lng": "104.244011",
              "name": "文山壮族苗族自治州",
              "pid": 2842
              }, {
              "id": 2964,
              "lat": "22.001724",
              "letter": "X",
              "lng": "100.797943",
              "name": "西双版纳傣族自治州",
              "pid": 2842
              }, {
              "id": 2968,
              "lat": "25.589449",
              "letter": "D",
              "lng": "100.225670",
              "name": "大理白族自治州",
              "pid": 2842
              }, {
              "id": 2981,
              "lat": "24.436693",
              "letter": "D",
              "lng": "98.578362",
              "name": "德宏傣族景颇族自治州",
              "pid": 2842
              }, {
              "id": 2987,
              "lat": "25.850948",
              "letter": "N",
              "lng": "98.854301",
              "name": "怒江傈僳族自治州",
              "pid": 2842
              }, {
              "id": 2992,
              "lat": "27.826853",
              "letter": "D",
              "lng": "99.706459",
              "name": "迪庆藏族自治州",
              "pid": 2842
              }],
 "id": 2842,
 "lat": "25.040609",
 "letter": "Y",
 "lng": "102.712250",
 "name": "云南省"
 }, {
 "cityList": [{
              "id": 0,
              "lat": "",
              "letter": "",
              "lng": "",
              "name": "不限",
              "pid": 1020
              },{
              "id": 1021,
              "lat": "30.287458",
              "letter": "H",
              "lng": "120.153572",
              "name": "杭州市",
              "pid": 1020
              }, {
              "id": 1036,
              "lat": "29.868387",
              "letter": "N",
              "lng": "121.549789",
              "name": "宁波市",
              "pid": 1020
              }, {
              "id": 1049,
              "lat": "28.000574",
              "letter": "W",
              "lng": "120.672112",
              "name": "温州市",
              "pid": 1020
              }, {
              "id": 1062,
              "lat": "30.762653",
              "letter": "J",
              "lng": "120.750862",
              "name": "嘉兴市",
              "pid": 1020
              }, {
              "id": 1071,
              "lat": "30.867197",
              "letter": "H",
              "lng": "120.102394",
              "name": "湖州市",
              "pid": 1020
              }, {
              "id": 1078,
              "lat": "29.997116",
              "letter": "S",
              "lng": "120.582115",
              "name": "绍兴市",
              "pid": 1020
              }, {
              "id": 1086,
              "lat": "29.089523",
              "letter": "J",
              "lng": "119.649506",
              "name": "金华市",
              "pid": 1020
              }, {
              "id": 1097,
              "lat": "28.941708",
              "letter": "Q",
              "lng": "118.872627",
              "name": "衢州市",
              "pid": 1020
              }, {
              "id": 1105,
              "lat": "30.016027",
              "letter": "Z",
              "lng": "122.106865",
              "name": "舟山市",
              "pid": 1020
              }, {
              "id": 1111,
              "lat": "28.661377",
              "letter": "T",
              "lng": "121.428596",
              "name": "台州市",
              "pid": 1020
              }, {
              "id": 1122,
              "lat": "28.451994",
              "letter": "L",
              "lng": "119.921783",
              "name": "丽水市",
              "pid": 1020
              }],
 "id": 1020,
 "lat": "30.287458",
 "letter": "Z",
 "lng": "120.153572",
 "name": "浙江省"
 }, {
 "cityList": [{
              "id": 0,
              "lat": "",
              "letter": "",
              "lng": "",
              "name": "不限",
              "pid": 2476
              },{
              "id": 2477,
              "lat": "29.533155",
              "letter": "S",
              "lng": "106.504959",
              "name": "重庆市",
              "pid": 2476
              }],
 "id": 2476,
 "lat": "29.533155",
 "letter": "Z",
 "lng": "106.504959",
 "name": "重庆"
 }
]